[{"key": 0, "name": " סופרפארם", "city": " גן יבנה", "address": "  56 ", "location": {"lat": 31.7952815, "lng": 34.704494}, "datetime": [{"key": 0, "date": " 15/02/2021", "time_start": "18:00", "time_end": "19:00"}]}, {"key": 1, "name": " שער מנשה", "city": " שער מנשה", "address": " ", "location": {"lat": 32.4438777, "lng": 35.0109759}, "datetime": [{"key": 1, "date": " 15/02/2021", "time_start": "11:30", "time_end": "20:00"}]}, {"key": 2, "name": " BIG", "city": " נתניה", "address": " גאון בני 3 ", "location": {"lat": 32.2764893, "lng": 34.8614998}, "datetime": [{"key": 2, "date": " 15/02/2021", "time_start": "11:00", "time_end": "12:30"}]}, {"key": 3, "name": " היכל התרבות", "city": " נשר", "address": " דרך השלום 26 ", "location": {"lat": 32.7702169, "lng": 35.0471356}, "datetime": [{"key": 3, "date": " 15/02/2021", "time_start": "11:00", "time_end": "11:15"}]}, {"key": 4, "name": " מעון נכים", "city": " נתניה", "address": " ", "location": {"lat": 32.4612037, "lng": 34.9717971}, "datetime": [{"key": 4, "date": " 15/02/2021", "time_start": "11:00", "time_end": "11:15"}]}, {"key": 5, "name": " סופר הכי זול", "city": " ראש פינה", "address": " ", "location": {"lat": 32.9686379, "lng": 35.5387552}, "datetime": [{"key": 5, "date": " 15/02/2021", "time_start": "11:00", "time_end": "12:00"}]}, {"key": 6, "name": " סורוקה", "city": " באר שבע", "address": "  151 ", "location": {"lat": 31.2580633, "lng": 34.7994009}, "datetime": [{"key": 6, "date": " 15/02/2021", "time_start": "11:00", "time_end": "12:00"}]}, {"key": 7, "name": " אושר עד קריית ביאליק", "city": " קרית ביאליק", "address": " מולר הנס 6 ", "location": {"lat": 32.8618235, "lng": 35.098291}, "datetime": [{"key": 7, "date": " 15/02/2021", "time_start": "10:00", "time_end": "10:30"}]}, {"key": 8, "name": " חניון אצטדיון כפר סבא", "city": " כפר סבא", "address": " בן יהודה 102 ", "location": {"lat": 32.1825385, "lng": 34.9269989}, "datetime": [{"key": 8, "date": " 15/02/2021", "time_start": "09:30", "time_end": "10:00"}]}, {"key": 9, "name": " א א ניר באר שבע", "city": " באר שבע", "address": " הפועלים 2 ", "location": {"lat": 31.2285583, "lng": 34.8084524}, "datetime": [{"key": 9, "date": " 15/02/2021", "time_start": "09:00", "time_end": "14:30"}]}, {"key": 10, "name": " אופטיקה הלפרין", "city": " אשקלון", "address": " הגבורה 5 ", "location": {"lat": 31.6653938, "lng": 34.5637601}, "datetime": [{"key": 10, "date": " 15/02/2021", "time_start": "09:00", "time_end": "13:00"}]}, {"key": 11, "name": " דגני", "city": " חדרה", "address": "  7 ", "location": {"lat": 32.4418197, "lng": 34.9130742}, "datetime": [{"key": 11, "date": " 15/02/2021", "time_start": "09:00", "time_end": "10:00"}]}, {"key": 12, "name": " ליבנה נדלן", "city": " תל אביב - יפו", "address": " תוצרת הארץ 7 ", "location": {"lat": 32.0732734, "lng": 34.7970061}, "datetime": [{"key": 12, "date": " 15/02/2021", "time_start": "09:00", "time_end": "09:30"}]}, {"key": 13, "name": " סופר פארם", "city": " ראשון לציון", "address": " רוטשילד 45 ", "location": {"lat": 31.9632209, "lng": 34.8013917}, "datetime": [{"key": 13, "date": " 15/02/2021", "time_start": "09:00", "time_end": "10:00"}]}, {"key": 14, "name": " קופח כללית איבטין", "city": " אבטין", "address": " ", "location": {"lat": 32.760533, "lng": 35.111907}, "datetime": [{"key": 14, "date": " 15/02/2021", "time_start": "09:00", "time_end": "09:30"}]}, {"key": 15, "name": " מתחם לבדיקת קורונה", "city": " נתיבות", "address": " ", "location": {"lat": 31.423196, "lng": 34.595254}, "datetime": [{"key": 15, "date": " 15/02/2021", "time_start": "08:40", "time_end": "09:00"}]}, {"key": 16, "name": " חנות ברכת אלעזר", "city": " קרית גת", "address": " גאון הירדן 40 ", "location": {"lat": 31.6109624, "lng": 34.7546495}, "datetime": [{"key": 16, "date": " 15/02/2021", "time_start": "08:30", "time_end": "10:00"}]}, {"key": 17, "name": " משרד שירות לקוחות", "city": " מודיעין-מכבים-רעות", "address": " צלע ההר  ", "location": {"lat": 31.9214641, "lng": 34.9696856}, "datetime": [{"key": 17, "date": " 15/02/2021", "time_start": "08:00", "time_end": "10:00"}]}, {"key": 18, "name": " מפעל תבליט פלסטיק", "city": " יבנה", "address": " נחל שניר  ", "location": {"lat": 31.8998371, "lng": 34.73677199999999}, "datetime": [{"key": 18, "date": " 15/02/2021", "time_start": "07:00", "time_end": "16:00"}]}, {"key": 19, "name": " מטבחי זיו", "city": " שדרות", "address": " קהילת מילנו 1 ", "location": {"lat": 31.5219863, "lng": 34.6069389}, "datetime": [{"key": 19, "date": " 15/02/2021", "time_start": "06:45", "time_end": "08:15"}]}]